[[{"id": "4ad4c05cf964a520e6f520e3", "name": "Jumbo Empanadas", "location": {"address": "245 Augusta Ave", "crossStreet": "btw Baldwin & Nassau", "lat": 43.65483086424975, "lng": -79.40209828955608, "labeledLatLngs": [{"label": "display", "lat": 43.65483086424975, "lng": -79.40209828955608}], "postalCode": "M5T 2L8", "cc": "CA", "neighborhood": "Kensington Market", "city": "Toronto", "state": "ON", "country": "Canada", "formattedAddress": ["245 Augusta Ave (btw Baldwin & Nassau)", "Toronto ON M5T 2L8", "Canada"]}, "categories": [{"id": "52939a8c3cf9994f4e043a35", "name": "Empanada Restaurant", "pluralName": "Empanada Restaurants", "shortName": "Empanada", "icon": {"prefix": "https://ss3.4sqi.net/img/categories_v2/food/latinamerican_", "suffix": ".png"}, "primary": true}], "referralId": "v-1583891096", "hasPerk": false}], [{"id": "4ad4c05cf964a520e6f520e3", "name": "Jumbo Empanadas", "location": {"address": "245 Augusta Ave", "crossStreet": "btw Baldwin & Nassau", "lat": 43.65483086424975, "lng": -79.40209828955608, "labeledLatLngs": [{"label": "display", "lat": 43.65483086424975, "lng": -79.40209828955608}], "postalCode": "M5T 2L8", "cc": "CA", "neighborhood": "Kensington Market", "city": "Toronto", "state": "ON", "country": "Canada", "formattedAddress": ["245 Augusta Ave (btw Baldwin & Nassau)", "Toronto ON M5T 2L8", "Canada"]}, "categories": [{"id": "52939a8c3cf9994f4e043a35", "name": "Empanada Restaurant", "pluralName": "Empanada Restaurants", "shortName": "Empanada", "icon": {"prefix": "https://ss3.4sqi.net/img/categories_v2/food/latinamerican_", "suffix": ".png"}, "primary": true}], "referralId": "v-1583891096", "hasPerk": false}], [{"id": "4ad4c05cf964a520e6f520e3", "name": "Jumbo Empanadas", "location": {"address": "245 Augusta Ave", "crossStreet": "btw Baldwin & Nassau", "lat": 43.65483086424975, "lng": -79.40209828955608, "labeledLatLngs": [{"label": "display", "lat": 43.65483086424975, "lng": -79.40209828955608}], "postalCode": "M5T 2L8", "cc": "CA", "neighborhood": "Kensington Market", "city": "Toronto", "state": "ON", "country": "Canada", "formattedAddress": ["245 Augusta Ave (btw Baldwin & Nassau)", "Toronto ON M5T 2L8", "Canada"]}, "categories": [{"id": "52939a8c3cf9994f4e043a35", "name": "Empanada Restaurant", "pluralName": "Empanada Restaurants", "shortName": "Empanada", "icon": {"prefix": "https://ss3.4sqi.net/img/categories_v2/food/latinamerican_", "suffix": ".png"}, "primary": true}], "referralId": "v-1583891096", "hasPerk": false}], [{"id": "4ad4c05cf964a520e6f520e3", "name": "Jumbo Empanadas", "location": {"address": "245 Augusta Ave", "crossStreet": "btw Baldwin & Nassau", "lat": 43.65483086424975, "lng": -79.40209828955608, "labeledLatLngs": [{"label": "display", "lat": 43.65483086424975, "lng": -79.40209828955608}], "postalCode": "M5T 2L8", "cc": "CA", "neighborhood": "Kensington Market", "city": "Toronto", "state": "ON", "country": "Canada", "formattedAddress": ["245 Augusta Ave (btw Baldwin & Nassau)", "Toronto ON M5T 2L8", "Canada"]}, "categories": [{"id": "52939a8c3cf9994f4e043a35", "name": "Empanada Restaurant", "pluralName": "Empanada Restaurants", "shortName": "Empanada", "icon": {"prefix": "https://ss3.4sqi.net/img/categories_v2/food/latinamerican_", "suffix": ".png"}, "primary": true}], "referralId": "v-1583891097", "hasPerk": false}], [{"id": "4ad4c05cf964a520e6f520e3", "name": "Jumbo Empanadas", "location": {"address": "245 Augusta Ave", "crossStreet": "btw Baldwin & Nassau", "lat": 43.65483086424975, "lng": -79.40209828955608, "labeledLatLngs": [{"label": "display", "lat": 43.65483086424975, "lng": -79.40209828955608}], "postalCode": "M5T 2L8", "cc": "CA", "neighborhood": "Kensington Market", "city": "Toronto", "state": "ON", "country": "Canada", "formattedAddress": ["245 Augusta Ave (btw Baldwin & Nassau)", "Toronto ON M5T 2L8", "Canada"]}, "categories": [{"id": "52939a8c3cf9994f4e043a35", "name": "Empanada Restaurant", "pluralName": "Empanada Restaurants", "shortName": "Empanada", "icon": {"prefix": "https://ss3.4sqi.net/img/categories_v2/food/latinamerican_", "suffix": ".png"}, "primary": true}], "referralId": "v-1583891097", "hasPerk": false}], [{"id": "4ad4c05cf964a520e6f520e3", "name": "Jumbo Empanadas", "location": {"address": "245 Augusta Ave", "crossStreet": "btw Baldwin & Nassau", "lat": 43.65483086424975, "lng": -79.40209828955608, "labeledLatLngs": [{"label": "display", "lat": 43.65483086424975, "lng": -79.40209828955608}], "postalCode": "M5T 2L8", "cc": "CA", "neighborhood": "Kensington Market", "city": "Toronto", "state": "ON", "country": "Canada", "formattedAddress": ["245 Augusta Ave (btw Baldwin & Nassau)", "Toronto ON M5T 2L8", "Canada"]}, "categories": [{"id": "52939a8c3cf9994f4e043a35", "name": "Empanada Restaurant", "pluralName": "Empanada Restaurants", "shortName": "Empanada", "icon": {"prefix": "https://ss3.4sqi.net/img/categories_v2/food/latinamerican_", "suffix": ".png"}, "primary": true}], "referralId": "v-1583891098", "hasPerk": false}], [{"id": "4ad4c05cf964a520e6f520e3", "name": "Jumbo Empanadas", "location": {"address": "245 Augusta Ave", "crossStreet": "btw Baldwin & Nassau", "lat": 43.65483086424975, "lng": -79.40209828955608, "labeledLatLngs": [{"label": "display", "lat": 43.65483086424975, "lng": -79.40209828955608}], "postalCode": "M5T 2L8", "cc": "CA", "neighborhood": "Kensington Market", "city": "Toronto", "state": "ON", "country": "Canada", "formattedAddress": ["245 Augusta Ave (btw Baldwin & Nassau)", "Toronto ON M5T 2L8", "Canada"]}, "categories": [{"id": "52939a8c3cf9994f4e043a35", "name": "Empanada Restaurant", "pluralName": "Empanada Restaurants", "shortName": "Empanada", "icon": {"prefix": "https://ss3.4sqi.net/img/categories_v2/food/latinamerican_", "suffix": ".png"}, "primary": true}], "referralId": "v-1583891098", "hasPerk": false}], [{"id": "4ad4c05cf964a520e6f520e3", "name": "Jumbo Empanadas", "location": {"address": "245 Augusta Ave", "crossStreet": "btw Baldwin & Nassau", "lat": 43.65483086424975, "lng": -79.40209828955608, "labeledLatLngs": [{"label": "display", "lat": 43.65483086424975, "lng": -79.40209828955608}], "postalCode": "M5T 2L8", "cc": "CA", "neighborhood": "Kensington Market", "city": "Toronto", "state": "ON", "country": "Canada", "formattedAddress": ["245 Augusta Ave (btw Baldwin & Nassau)", "Toronto ON M5T 2L8", "Canada"]}, "categories": [{"id": "52939a8c3cf9994f4e043a35", "name": "Empanada Restaurant", "pluralName": "Empanada Restaurants", "shortName": "Empanada", "icon": {"prefix": "https://ss3.4sqi.net/img/categories_v2/food/latinamerican_", "suffix": ".png"}, "primary": true}], "referralId": "v-1583891099", "hasPerk": false}], [{"id": "4ad4c05cf964a520e6f520e3", "name": "Jumbo Empanadas", "location": {"address": "245 Augusta Ave", "crossStreet": "btw Baldwin & Nassau", "lat": 43.65483086424975, "lng": -79.40209828955608, "labeledLatLngs": [{"label": "display", "lat": 43.65483086424975, "lng": -79.40209828955608}], "postalCode": "M5T 2L8", "cc": "CA", "neighborhood": "Kensington Market", "city": "Toronto", "state": "ON", "country": "Canada", "formattedAddress": ["245 Augusta Ave (btw Baldwin & Nassau)", "Toronto ON M5T 2L8", "Canada"]}, "categories": [{"id": "52939a8c3cf9994f4e043a35", "name": "Empanada Restaurant", "pluralName": "Empanada Restaurants", "shortName": "Empanada", "icon": {"prefix": "https://ss3.4sqi.net/img/categories_v2/food/latinamerican_", "suffix": ".png"}, "primary": true}], "referralId": "v-1583891099", "hasPerk": false}], [{"id": "4ad4c05cf964a520e6f520e3", "name": "Jumbo Empanadas", "location": {"address": "245 Augusta Ave", "crossStreet": "btw Baldwin & Nassau", "lat": 43.65483086424975, "lng": -79.40209828955608, "labeledLatLngs": [{"label": "display", "lat": 43.65483086424975, "lng": -79.40209828955608}], "postalCode": "M5T 2L8", "cc": "CA", "neighborhood": "Kensington Market", "city": "Toronto", "state": "ON", "country": "Canada", "formattedAddress": ["245 Augusta Ave (btw Baldwin & Nassau)", "Toronto ON M5T 2L8", "Canada"]}, "categories": [{"id": "52939a8c3cf9994f4e043a35", "name": "Empanada Restaurant", "pluralName": "Empanada Restaurants", "shortName": "Empanada", "icon": {"prefix": "https://ss3.4sqi.net/img/categories_v2/food/latinamerican_", "suffix": ".png"}, "primary": true}], "referralId": "v-1583891100", "hasPerk": false}], [{"id": "4ad4c05cf964a520e6f520e3", "name": "Jumbo Empanadas", "location": {"address": "245 Augusta Ave", "crossStreet": "btw Baldwin & Nassau", "lat": 43.65483086424975, "lng": -79.40209828955608, "labeledLatLngs": [{"label": "display", "lat": 43.65483086424975, "lng": -79.40209828955608}], "postalCode": "M5T 2L8", "cc": "CA", "neighborhood": "Kensington Market", "city": "Toronto", "state": "ON", "country": "Canada", "formattedAddress": ["245 Augusta Ave (btw Baldwin & Nassau)", "Toronto ON M5T 2L8", "Canada"]}, "categories": [{"id": "52939a8c3cf9994f4e043a35", "name": "Empanada Restaurant", "pluralName": "Empanada Restaurants", "shortName": "Empanada", "icon": {"prefix": "https://ss3.4sqi.net/img/categories_v2/food/latinamerican_", "suffix": ".png"}, "primary": true}], "referralId": "v-1583891100", "hasPerk": false}], [{"id": "4ad4c05cf964a520e6f520e3", "name": "Jumbo Empanadas", "location": {"address": "245 Augusta Ave", "crossStreet": "btw Baldwin & Nassau", "lat": 43.65483086424975, "lng": -79.40209828955608, "labeledLatLngs": [{"label": "display", "lat": 43.65483086424975, "lng": -79.40209828955608}], "postalCode": "M5T 2L8", "cc": "CA", "neighborhood": "Kensington Market", "city": "Toronto", "state": "ON", "country": "Canada", "formattedAddress": ["245 Augusta Ave (btw Baldwin & Nassau)", "Toronto ON M5T 2L8", "Canada"]}, "categories": [{"id": "52939a8c3cf9994f4e043a35", "name": "Empanada Restaurant", "pluralName": "Empanada Restaurants", "shortName": "Empanada", "icon": {"prefix": "https://ss3.4sqi.net/img/categories_v2/food/latinamerican_", "suffix": ".png"}, "primary": true}], "referralId": "v-1583891100", "hasPerk": false}], [{"id": "4ad4c05cf964a520e6f520e3", "name": "Jumbo Empanadas", "location": {"address": "245 Augusta Ave", "crossStreet": "btw Baldwin & Nassau", "lat": 43.65483086424975, "lng": -79.40209828955608, "labeledLatLngs": [{"label": "display", "lat": 43.65483086424975, "lng": -79.40209828955608}], "postalCode": "M5T 2L8", "cc": "CA", "neighborhood": "Kensington Market", "city": "Toronto", "state": "ON", "country": "Canada", "formattedAddress": ["245 Augusta Ave (btw Baldwin & Nassau)", "Toronto ON M5T 2L8", "Canada"]}, "categories": [{"id": "52939a8c3cf9994f4e043a35", "name": "Empanada Restaurant", "pluralName": "Empanada Restaurants", "shortName": "Empanada", "icon": {"prefix": "https://ss3.4sqi.net/img/categories_v2/food/latinamerican_", "suffix": ".png"}, "primary": true}], "referralId": "v-1583891101", "hasPerk": false}], [{"id": "4ad4c05cf964a520e6f520e3", "name": "Jumbo Empanadas", "location": {"address": "245 Augusta Ave", "crossStreet": "btw Baldwin & Nassau", "lat": 43.65483086424975, "lng": -79.40209828955608, "labeledLatLngs": [{"label": "display", "lat": 43.65483086424975, "lng": -79.40209828955608}], "postalCode": "M5T 2L8", "cc": "CA", "neighborhood": "Kensington Market", "city": "Toronto", "state": "ON", "country": "Canada", "formattedAddress": ["245 Augusta Ave (btw Baldwin & Nassau)", "Toronto ON M5T 2L8", "Canada"]}, "categories": [{"id": "52939a8c3cf9994f4e043a35", "name": "Empanada Restaurant", "pluralName": "Empanada Restaurants", "shortName": "Empanada", "icon": {"prefix": "https://ss3.4sqi.net/img/categories_v2/food/latinamerican_", "suffix": ".png"}, "primary": true}], "referralId": "v-1583891101", "hasPerk": false}], [{"id": "4ad4c05cf964a520e6f520e3", "name": "Jumbo Empanadas", "location": {"address": "245 Augusta Ave", "crossStreet": "btw Baldwin & Nassau", "lat": 43.65483086424975, "lng": -79.40209828955608, "labeledLatLngs": [{"label": "display", "lat": 43.65483086424975, "lng": -79.40209828955608}], "postalCode": "M5T 2L8", "cc": "CA", "neighborhood": "Kensington Market", "city": "Toronto", "state": "ON", "country": "Canada", "formattedAddress": ["245 Augusta Ave (btw Baldwin & Nassau)", "Toronto ON M5T 2L8", "Canada"]}, "categories": [{"id": "52939a8c3cf9994f4e043a35", "name": "Empanada Restaurant", "pluralName": "Empanada Restaurants", "shortName": "Empanada", "icon": {"prefix": "https://ss3.4sqi.net/img/categories_v2/food/latinamerican_", "suffix": ".png"}, "primary": true}], "referralId": "v-1583891101", "hasPerk": false}], [{"id": "4ad4c05cf964a520e6f520e3", "name": "Jumbo Empanadas", "location": {"address": "245 Augusta Ave", "crossStreet": "btw Baldwin & Nassau", "lat": 43.65483086424975, "lng": -79.40209828955608, "labeledLatLngs": [{"label": "display", "lat": 43.65483086424975, "lng": -79.40209828955608}], "postalCode": "M5T 2L8", "cc": "CA", "neighborhood": "Kensington Market", "city": "Toronto", "state": "ON", "country": "Canada", "formattedAddress": ["245 Augusta Ave (btw Baldwin & Nassau)", "Toronto ON M5T 2L8", "Canada"]}, "categories": [{"id": "52939a8c3cf9994f4e043a35", "name": "Empanada Restaurant", "pluralName": "Empanada Restaurants", "shortName": "Empanada", "icon": {"prefix": "https://ss3.4sqi.net/img/categories_v2/food/latinamerican_", "suffix": ".png"}, "primary": true}], "referralId": "v-1583891102", "hasPerk": false}], [{"id": "4e07720c6284d9ee92d57f48", "name": "Argentinian BBQ Den", "location": {"address": "857 Shaw St", "lat": 43.665842, "lng": -79.424114, "labeledLatLngs": [{"label": "display", "lat": 43.665842, "lng": -79.424114}], "cc": "CA", "city": "Toronto", "state": "ON", "country": "Canada", "formattedAddress": ["857 Shaw St", "Toronto ON", "Canada"]}, "categories": [], "referralId": "v-1583891102", "hasPerk": false}], [{"id": "4e07720c6284d9ee92d57f48", "name": "Argentinian BBQ Den", "location": {"address": "857 Shaw St", "lat": 43.665842, "lng": -79.424114, "labeledLatLngs": [{"label": "display", "lat": 43.665842, "lng": -79.424114}], "cc": "CA", "city": "Toronto", "state": "ON", "country": "Canada", "formattedAddress": ["857 Shaw St", "Toronto ON", "Canada"]}, "categories": [], "referralId": "v-1583891102", "hasPerk": false}], [{"id": "4e07720c6284d9ee92d57f48", "name": "Argentinian BBQ Den", "location": {"address": "857 Shaw St", "lat": 43.665842, "lng": -79.424114, "labeledLatLngs": [{"label": "display", "lat": 43.665842, "lng": -79.424114}], "cc": "CA", "city": "Toronto", "state": "ON", "country": "Canada", "formattedAddress": ["857 Shaw St", "Toronto ON", "Canada"]}, "categories": [], "referralId": "v-1583891103", "hasPerk": false}], [{"id": "4e07720c6284d9ee92d57f48", "name": "Argentinian BBQ Den", "location": {"address": "857 Shaw St", "lat": 43.665842, "lng": -79.424114, "labeledLatLngs": [{"label": "display", "lat": 43.665842, "lng": -79.424114}], "cc": "CA", "city": "Toronto", "state": "ON", "country": "Canada", "formattedAddress": ["857 Shaw St", "Toronto ON", "Canada"]}, "categories": [], "referralId": "v-1583891103", "hasPerk": false}], [{"id": "4e07720c6284d9ee92d57f48", "name": "Argentinian BBQ Den", "location": {"address": "857 Shaw St", "lat": 43.665842, "lng": -79.424114, "labeledLatLngs": [{"label": "display", "lat": 43.665842, "lng": -79.424114}], "cc": "CA", "city": "Toronto", "state": "ON", "country": "Canada", "formattedAddress": ["857 Shaw St", "Toronto ON", "Canada"]}, "categories": [], "referralId": "v-1583891104", "hasPerk": false}], [{"id": "4e07720c6284d9ee92d57f48", "name": "Argentinian BBQ Den", "location": {"address": "857 Shaw St", "lat": 43.665842, "lng": -79.424114, "labeledLatLngs": [{"label": "display", "lat": 43.665842, "lng": -79.424114}], "cc": "CA", "city": "Toronto", "state": "ON", "country": "Canada", "formattedAddress": ["857 Shaw St", "Toronto ON", "Canada"]}, "categories": [], "referralId": "v-1583891104", "hasPerk": false}], [{"id": "4e07720c6284d9ee92d57f48", "name": "Argentinian BBQ Den", "location": {"address": "857 Shaw St", "lat": 43.665842, "lng": -79.424114, "labeledLatLngs": [{"label": "display", "lat": 43.665842, "lng": -79.424114}], "cc": "CA", "city": "Toronto", "state": "ON", "country": "Canada", "formattedAddress": ["857 Shaw St", "Toronto ON", "Canada"]}, "categories": [], "referralId": "v-1583891104", "hasPerk": false}], [{"id": "4e07720c6284d9ee92d57f48", "name": "Argentinian BBQ Den", "location": {"address": "857 Shaw St", "lat": 43.665842, "lng": -79.424114, "labeledLatLngs": [{"label": "display", "lat": 43.665842, "lng": -79.424114}], "cc": "CA", "city": "Toronto", "state": "ON", "country": "Canada", "formattedAddress": ["857 Shaw St", "Toronto ON", "Canada"]}, "categories": [], "referralId": "v-1583891105", "hasPerk": false}], [{"id": "4e07720c6284d9ee92d57f48", "name": "Argentinian BBQ Den", "location": {"address": "857 Shaw St", "lat": 43.665842, "lng": -79.424114, "labeledLatLngs": [{"label": "display", "lat": 43.665842, "lng": -79.424114}], "cc": "CA", "city": "Toronto", "state": "ON", "country": "Canada", "formattedAddress": ["857 Shaw St", "Toronto ON", "Canada"]}, "categories": [], "referralId": "v-1583891105", "hasPerk": false}], [{"id": "4e07720c6284d9ee92d57f48", "name": "Argentinian BBQ Den", "location": {"address": "857 Shaw St", "lat": 43.665842, "lng": -79.424114, "labeledLatLngs": [{"label": "display", "lat": 43.665842, "lng": -79.424114}], "cc": "CA", "city": "Toronto", "state": "ON", "country": "Canada", "formattedAddress": ["857 Shaw St", "Toronto ON", "Canada"]}, "categories": [], "referralId": "v-1583891106", "hasPerk": false}], [{"id": "4e07720c6284d9ee92d57f48", "name": "Argentinian BBQ Den", "location": {"address": "857 Shaw St", "lat": 43.665842, "lng": -79.424114, "labeledLatLngs": [{"label": "display", "lat": 43.665842, "lng": -79.424114}], "cc": "CA", "city": "Toronto", "state": "ON", "country": "Canada", "formattedAddress": ["857 Shaw St", "Toronto ON", "Canada"]}, "categories": [], "referralId": "v-1583891106", "hasPerk": false}], [{"id": "4e07720c6284d9ee92d57f48", "name": "Argentinian BBQ Den", "location": {"address": "857 Shaw St", "lat": 43.665842, "lng": -79.424114, "labeledLatLngs": [{"label": "display", "lat": 43.665842, "lng": -79.424114}], "cc": "CA", "city": "Toronto", "state": "ON", "country": "Canada", "formattedAddress": ["857 Shaw St", "Toronto ON", "Canada"]}, "categories": [], "referralId": "v-1583891107", "hasPerk": false}], [{"id": "4e07720c6284d9ee92d57f48", "name": "Argentinian BBQ Den", "location": {"address": "857 Shaw St", "lat": 43.665842, "lng": -79.424114, "labeledLatLngs": [{"label": "display", "lat": 43.665842, "lng": -79.424114}], "cc": "CA", "city": "Toronto", "state": "ON", "country": "Canada", "formattedAddress": ["857 Shaw St", "Toronto ON", "Canada"]}, "categories": [], "referralId": "v-1583891107", "hasPerk": false}], [{"id": "4e07720c6284d9ee92d57f48", "name": "Argentinian BBQ Den", "location": {"address": "857 Shaw St", "lat": 43.665842, "lng": -79.424114, "labeledLatLngs": [{"label": "display", "lat": 43.665842, "lng": -79.424114}], "cc": "CA", "city": "Toronto", "state": "ON", "country": "Canada", "formattedAddress": ["857 Shaw St", "Toronto ON", "Canada"]}, "categories": [], "referralId": "v-1583891107", "hasPerk": false}], [{"id": "4e07720c6284d9ee92d57f48", "name": "Argentinian BBQ Den", "location": {"address": "857 Shaw St", "lat": 43.665842, "lng": -79.424114, "labeledLatLngs": [{"label": "display", "lat": 43.665842, "lng": -79.424114}], "cc": "CA", "city": "Toronto", "state": "ON", "country": "Canada", "formattedAddress": ["857 Shaw St", "Toronto ON", "Canada"]}, "categories": [], "referralId": "v-1583891108", "hasPerk": false}], [{"id": "4e07720c6284d9ee92d57f48", "name": "Argentinian BBQ Den", "location": {"address": "857 Shaw St", "lat": 43.665842, "lng": -79.424114, "labeledLatLngs": [{"label": "display", "lat": 43.665842, "lng": -79.424114}], "cc": "CA", "city": "Toronto", "state": "ON", "country": "Canada", "formattedAddress": ["857 Shaw St", "Toronto ON", "Canada"]}, "categories": [], "referralId": "v-1583891108", "hasPerk": false}], [{"id": "5025a382e4b064c42bc70ba7", "name": "Empanadas DelSUR", "location": {"address": "639b The Queensway", "lat": 43.62746368454997, "lng": -79.49785836016046, "labeledLatLngs": [{"label": "display", "lat": 43.62746368454997, "lng": -79.49785836016046}], "postalCode": "M8Y 1K6", "cc": "CA", "city": "Etobicoke", "state": "ON", "country": "Canada", "formattedAddress": ["639b The Queensway", "Etobicoke ON M8Y 1K6", "Canada"]}, "categories": [{"id": "4bf58dd8d48988d1be941735", "name": "Latin American Restaurant", "pluralName": "Latin American Restaurants", "shortName": "Latin American", "icon": {"prefix": "https://ss3.4sqi.net/img/categories_v2/food/latinamerican_", "suffix": ".png"}, "primary": true}], "referralId": "v-1583891126", "hasPerk": false}], [{"id": "5025a382e4b064c42bc70ba7", "name": "Empanadas DelSUR", "location": {"address": "639b The Queensway", "lat": 43.62746368454997, "lng": -79.49785836016046, "labeledLatLngs": [{"label": "display", "lat": 43.62746368454997, "lng": -79.49785836016046}], "postalCode": "M8Y 1K6", "cc": "CA", "city": "Etobicoke", "state": "ON", "country": "Canada", "formattedAddress": ["639b The Queensway", "Etobicoke ON M8Y 1K6", "Canada"]}, "categories": [{"id": "4bf58dd8d48988d1be941735", "name": "Latin American Restaurant", "pluralName": "Latin American Restaurants", "shortName": "Latin American", "icon": {"prefix": "https://ss3.4sqi.net/img/categories_v2/food/latinamerican_", "suffix": ".png"}, "primary": true}], "referralId": "v-1583891126", "hasPerk": false}], [{"id": "5025a382e4b064c42bc70ba7", "name": "Empanadas DelSUR", "location": {"address": "639b The Queensway", "lat": 43.62746368454997, "lng": -79.49785836016046, "labeledLatLngs": [{"label": "display", "lat": 43.62746368454997, "lng": -79.49785836016046}], "postalCode": "M8Y 1K6", "cc": "CA", "city": "Etobicoke", "state": "ON", "country": "Canada", "formattedAddress": ["639b The Queensway", "Etobicoke ON M8Y 1K6", "Canada"]}, "categories": [{"id": "4bf58dd8d48988d1be941735", "name": "Latin American Restaurant", "pluralName": "Latin American Restaurants", "shortName": "Latin American", "icon": {"prefix": "https://ss3.4sqi.net/img/categories_v2/food/latinamerican_", "suffix": ".png"}, "primary": true}], "referralId": "v-1583891127", "hasPerk": false}], [{"id": "5025a382e4b064c42bc70ba7", "name": "Empanadas DelSUR", "location": {"address": "639b The Queensway", "lat": 43.62746368454997, "lng": -79.49785836016046, "labeledLatLngs": [{"label": "display", "lat": 43.62746368454997, "lng": -79.49785836016046}], "postalCode": "M8Y 1K6", "cc": "CA", "city": "Etobicoke", "state": "ON", "country": "Canada", "formattedAddress": ["639b The Queensway", "Etobicoke ON M8Y 1K6", "Canada"]}, "categories": [{"id": "4bf58dd8d48988d1be941735", "name": "Latin American Restaurant", "pluralName": "Latin American Restaurants", "shortName": "Latin American", "icon": {"prefix": "https://ss3.4sqi.net/img/categories_v2/food/latinamerican_", "suffix": ".png"}, "primary": true}], "referralId": "v-1583891127", "hasPerk": false}], [{"id": "5025a382e4b064c42bc70ba7", "name": "Empanadas DelSUR", "location": {"address": "639b The Queensway", "lat": 43.62746368454997, "lng": -79.49785836016046, "labeledLatLngs": [{"label": "display", "lat": 43.62746368454997, "lng": -79.49785836016046}], "postalCode": "M8Y 1K6", "cc": "CA", "city": "Etobicoke", "state": "ON", "country": "Canada", "formattedAddress": ["639b The Queensway", "Etobicoke ON M8Y 1K6", "Canada"]}, "categories": [{"id": "4bf58dd8d48988d1be941735", "name": "Latin American Restaurant", "pluralName": "Latin American Restaurants", "shortName": "Latin American", "icon": {"prefix": "https://ss3.4sqi.net/img/categories_v2/food/latinamerican_", "suffix": ".png"}, "primary": true}], "referralId": "v-1583891127", "hasPerk": false}], [{"id": "5025a382e4b064c42bc70ba7", "name": "Empanadas DelSUR", "location": {"address": "639b The Queensway", "lat": 43.62746368454997, "lng": -79.49785836016046, "labeledLatLngs": [{"label": "display", "lat": 43.62746368454997, "lng": -79.49785836016046}], "postalCode": "M8Y 1K6", "cc": "CA", "city": "Etobicoke", "state": "ON", "country": "Canada", "formattedAddress": ["639b The Queensway", "Etobicoke ON M8Y 1K6", "Canada"]}, "categories": [{"id": "4bf58dd8d48988d1be941735", "name": "Latin American Restaurant", "pluralName": "Latin American Restaurants", "shortName": "Latin American", "icon": {"prefix": "https://ss3.4sqi.net/img/categories_v2/food/latinamerican_", "suffix": ".png"}, "primary": true}], "referralId": "v-1583891128", "hasPerk": false}], [{"id": "5025a382e4b064c42bc70ba7", "name": "Empanadas DelSUR", "location": {"address": "639b The Queensway", "lat": 43.62746368454997, "lng": -79.49785836016046, "labeledLatLngs": [{"label": "display", "lat": 43.62746368454997, "lng": -79.49785836016046}], "postalCode": "M8Y 1K6", "cc": "CA", "city": "Etobicoke", "state": "ON", "country": "Canada", "formattedAddress": ["639b The Queensway", "Etobicoke ON M8Y 1K6", "Canada"]}, "categories": [{"id": "4bf58dd8d48988d1be941735", "name": "Latin American Restaurant", "pluralName": "Latin American Restaurants", "shortName": "Latin American", "icon": {"prefix": "https://ss3.4sqi.net/img/categories_v2/food/latinamerican_", "suffix": ".png"}, "primary": true}], "referralId": "v-1583891128", "hasPerk": false}], [{"id": "5025a382e4b064c42bc70ba7", "name": "Empanadas DelSUR", "location": {"address": "639b The Queensway", "lat": 43.62746368454997, "lng": -79.49785836016046, "labeledLatLngs": [{"label": "display", "lat": 43.62746368454997, "lng": -79.49785836016046}], "postalCode": "M8Y 1K6", "cc": "CA", "city": "Etobicoke", "state": "ON", "country": "Canada", "formattedAddress": ["639b The Queensway", "Etobicoke ON M8Y 1K6", "Canada"]}, "categories": [{"id": "4bf58dd8d48988d1be941735", "name": "Latin American Restaurant", "pluralName": "Latin American Restaurants", "shortName": "Latin American", "icon": {"prefix": "https://ss3.4sqi.net/img/categories_v2/food/latinamerican_", "suffix": ".png"}, "primary": true}], "referralId": "v-1583891128", "hasPerk": false}], [{"id": "5025a382e4b064c42bc70ba7", "name": "Empanadas DelSUR", "location": {"address": "639b The Queensway", "lat": 43.62746368454997, "lng": -79.49785836016046, "labeledLatLngs": [{"label": "display", "lat": 43.62746368454997, "lng": -79.49785836016046}], "postalCode": "M8Y 1K6", "cc": "CA", "city": "Etobicoke", "state": "ON", "country": "Canada", "formattedAddress": ["639b The Queensway", "Etobicoke ON M8Y 1K6", "Canada"]}, "categories": [{"id": "4bf58dd8d48988d1be941735", "name": "Latin American Restaurant", "pluralName": "Latin American Restaurants", "shortName": "Latin American", "icon": {"prefix": "https://ss3.4sqi.net/img/categories_v2/food/latinamerican_", "suffix": ".png"}, "primary": true}], "referralId": "v-1583891129", "hasPerk": false}], [{"id": "5025a382e4b064c42bc70ba7", "name": "Empanadas DelSUR", "location": {"address": "639b The Queensway", "lat": 43.62746368454997, "lng": -79.49785836016046, "labeledLatLngs": [{"label": "display", "lat": 43.62746368454997, "lng": -79.49785836016046}], "postalCode": "M8Y 1K6", "cc": "CA", "city": "Etobicoke", "state": "ON", "country": "Canada", "formattedAddress": ["639b The Queensway", "Etobicoke ON M8Y 1K6", "Canada"]}, "categories": [{"id": "4bf58dd8d48988d1be941735", "name": "Latin American Restaurant", "pluralName": "Latin American Restaurants", "shortName": "Latin American", "icon": {"prefix": "https://ss3.4sqi.net/img/categories_v2/food/latinamerican_", "suffix": ".png"}, "primary": true}], "referralId": "v-1583891132", "hasPerk": false}, {"id": "5bde1d5edb1d81002c7a97fd", "name": "Delicious Empanadas & More", "location": {"lat": 43.698172, "lng": -79.451371, "labeledLatLngs": [{"label": "display", "lat": 43.698172, "lng": -79.451371}], "postalCode": "M6E 3T1", "cc": "CA", "city": "Toronto", "state": "ON", "country": "Canada", "formattedAddress": ["Toronto ON M6E 3T1", "Canada"]}, "categories": [{"id": "58daa1558bbb0b01f18ec1f4", "name": "Colombian Restaurant", "pluralName": "Colombian Restaurants", "shortName": "Colombian", "icon": {"prefix": "https://ss3.4sqi.net/img/categories_v2/food/argentinian_", "suffix": ".png"}, "primary": true}], "referralId": "v-1583891132", "hasPerk": false}, {"id": "4ad4c05cf964a520e6f520e3", "name": "Jumbo Empanadas", "location": {"address": "245 Augusta Ave", "crossStreet": "btw Baldwin & Nassau", "lat": 43.65483086424975, "lng": -79.40209828955608, "labeledLatLngs": [{"label": "display", "lat": 43.65483086424975, "lng": -79.40209828955608}], "postalCode": "M5T 2L8", "cc": "CA", "neighborhood": "Kensington Market", "city": "Toronto", "state": "ON", "country": "Canada", "formattedAddress": ["245 Augusta Ave (btw Baldwin & Nassau)", "Toronto ON M5T 2L8", "Canada"]}, "categories": [{"id": "52939a8c3cf9994f4e043a35", "name": "Empanada Restaurant", "pluralName": "Empanada Restaurants", "shortName": "Empanada", "icon": {"prefix": "https://ss3.4sqi.net/img/categories_v2/food/latinamerican_", "suffix": ".png"}, "primary": true}], "referralId": "v-1583891132", "hasPerk": false}], [{"id": "5025a382e4b064c42bc70ba7", "name": "Empanadas DelSUR", "location": {"address": "639b The Queensway", "lat": 43.62746368454997, "lng": -79.49785836016046, "labeledLatLngs": [{"label": "display", "lat": 43.62746368454997, "lng": -79.49785836016046}], "postalCode": "M8Y 1K6", "cc": "CA", "city": "Etobicoke", "state": "ON", "country": "Canada", "formattedAddress": ["639b The Queensway", "Etobicoke ON M8Y 1K6", "Canada"]}, "categories": [{"id": "4bf58dd8d48988d1be941735", "name": "Latin American Restaurant", "pluralName": "Latin American Restaurants", "shortName": "Latin American", "icon": {"prefix": "https://ss3.4sqi.net/img/categories_v2/food/latinamerican_", "suffix": ".png"}, "primary": true}], "referralId": "v-1583891132", "hasPerk": false}, {"id": "5bde1d5edb1d81002c7a97fd", "name": "Delicious Empanadas & More", "location": {"lat": 43.698172, "lng": -79.451371, "labeledLatLngs": [{"label": "display", "lat": 43.698172, "lng": -79.451371}], "postalCode": "M6E 3T1", "cc": "CA", "city": "Toronto", "state": "ON", "country": "Canada", "formattedAddress": ["Toronto ON M6E 3T1", "Canada"]}, "categories": [{"id": "58daa1558bbb0b01f18ec1f4", "name": "Colombian Restaurant", "pluralName": "Colombian Restaurants", "shortName": "Colombian", "icon": {"prefix": "https://ss3.4sqi.net/img/categories_v2/food/argentinian_", "suffix": ".png"}, "primary": true}], "referralId": "v-1583891132", "hasPerk": false}, {"id": "4ad4c05cf964a520e6f520e3", "name": "Jumbo Empanadas", "location": {"address": "245 Augusta Ave", "crossStreet": "btw Baldwin & Nassau", "lat": 43.65483086424975, "lng": -79.40209828955608, "labeledLatLngs": [{"label": "display", "lat": 43.65483086424975, "lng": -79.40209828955608}], "postalCode": "M5T 2L8", "cc": "CA", "neighborhood": "Kensington Market", "city": "Toronto", "state": "ON", "country": "Canada", "formattedAddress": ["245 Augusta Ave (btw Baldwin & Nassau)", "Toronto ON M5T 2L8", "Canada"]}, "categories": [{"id": "52939a8c3cf9994f4e043a35", "name": "Empanada Restaurant", "pluralName": "Empanada Restaurants", "shortName": "Empanada", "icon": {"prefix": "https://ss3.4sqi.net/img/categories_v2/food/latinamerican_", "suffix": ".png"}, "primary": true}], "referralId": "v-1583891132", "hasPerk": false}], [{"id": "5025a382e4b064c42bc70ba7", "name": "Empanadas DelSUR", "location": {"address": "639b The Queensway", "lat": 43.62746368454997, "lng": -79.49785836016046, "labeledLatLngs": [{"label": "display", "lat": 43.62746368454997, "lng": -79.49785836016046}], "postalCode": "M8Y 1K6", "cc": "CA", "city": "Etobicoke", "state": "ON", "country": "Canada", "formattedAddress": ["639b The Queensway", "Etobicoke ON M8Y 1K6", "Canada"]}, "categories": [{"id": "4bf58dd8d48988d1be941735", "name": "Latin American Restaurant", "pluralName": "Latin American Restaurants", "shortName": "Latin American", "icon": {"prefix": "https://ss3.4sqi.net/img/categories_v2/food/latinamerican_", "suffix": ".png"}, "primary": true}], "referralId": "v-1583891133", "hasPerk": false}, {"id": "5bde1d5edb1d81002c7a97fd", "name": "Delicious Empanadas & More", "location": {"lat": 43.698172, "lng": -79.451371, "labeledLatLngs": [{"label": "display", "lat": 43.698172, "lng": -79.451371}], "postalCode": "M6E 3T1", "cc": "CA", "city": "Toronto", "state": "ON", "country": "Canada", "formattedAddress": ["Toronto ON M6E 3T1", "Canada"]}, "categories": [{"id": "58daa1558bbb0b01f18ec1f4", "name": "Colombian Restaurant", "pluralName": "Colombian Restaurants", "shortName": "Colombian", "icon": {"prefix": "https://ss3.4sqi.net/img/categories_v2/food/argentinian_", "suffix": ".png"}, "primary": true}], "referralId": "v-1583891133", "hasPerk": false}, {"id": "4ad4c05cf964a520e6f520e3", "name": "Jumbo Empanadas", "location": {"address": "245 Augusta Ave", "crossStreet": "btw Baldwin & Nassau", "lat": 43.65483086424975, "lng": -79.40209828955608, "labeledLatLngs": [{"label": "display", "lat": 43.65483086424975, "lng": -79.40209828955608}], "postalCode": "M5T 2L8", "cc": "CA", "neighborhood": "Kensington Market", "city": "Toronto", "state": "ON", "country": "Canada", "formattedAddress": ["245 Augusta Ave (btw Baldwin & Nassau)", "Toronto ON M5T 2L8", "Canada"]}, "categories": [{"id": "52939a8c3cf9994f4e043a35", "name": "Empanada Restaurant", "pluralName": "Empanada Restaurants", "shortName": "Empanada", "icon": {"prefix": "https://ss3.4sqi.net/img/categories_v2/food/latinamerican_", "suffix": ".png"}, "primary": true}], "referralId": "v-1583891133", "hasPerk": false}], [{"id": "5025a382e4b064c42bc70ba7", "name": "Empanadas DelSUR", "location": {"address": "639b The Queensway", "lat": 43.62746368454997, "lng": -79.49785836016046, "labeledLatLngs": [{"label": "display", "lat": 43.62746368454997, "lng": -79.49785836016046}], "postalCode": "M8Y 1K6", "cc": "CA", "city": "Etobicoke", "state": "ON", "country": "Canada", "formattedAddress": ["639b The Queensway", "Etobicoke ON M8Y 1K6", "Canada"]}, "categories": [{"id": "4bf58dd8d48988d1be941735", "name": "Latin American Restaurant", "pluralName": "Latin American Restaurants", "shortName": "Latin American", "icon": {"prefix": "https://ss3.4sqi.net/img/categories_v2/food/latinamerican_", "suffix": ".png"}, "primary": true}], "referralId": "v-1583891133", "hasPerk": false}, {"id": "5bde1d5edb1d81002c7a97fd", "name": "Delicious Empanadas & More", "location": {"lat": 43.698172, "lng": -79.451371, "labeledLatLngs": [{"label": "display", "lat": 43.698172, "lng": -79.451371}], "postalCode": "M6E 3T1", "cc": "CA", "city": "Toronto", "state": "ON", "country": "Canada", "formattedAddress": ["Toronto ON M6E 3T1", "Canada"]}, "categories": [{"id": "58daa1558bbb0b01f18ec1f4", "name": "Colombian Restaurant", "pluralName": "Colombian Restaurants", "shortName": "Colombian", "icon": {"prefix": "https://ss3.4sqi.net/img/categories_v2/food/argentinian_", "suffix": ".png"}, "primary": true}], "referralId": "v-1583891133", "hasPerk": false}, {"id": "4ad4c05cf964a520e6f520e3", "name": "Jumbo Empanadas", "location": {"address": "245 Augusta Ave", "crossStreet": "btw Baldwin & Nassau", "lat": 43.65483086424975, "lng": -79.40209828955608, "labeledLatLngs": [{"label": "display", "lat": 43.65483086424975, "lng": -79.40209828955608}], "postalCode": "M5T 2L8", "cc": "CA", "neighborhood": "Kensington Market", "city": "Toronto", "state": "ON", "country": "Canada", "formattedAddress": ["245 Augusta Ave (btw Baldwin & Nassau)", "Toronto ON M5T 2L8", "Canada"]}, "categories": [{"id": "52939a8c3cf9994f4e043a35", "name": "Empanada Restaurant", "pluralName": "Empanada Restaurants", "shortName": "Empanada", "icon": {"prefix": "https://ss3.4sqi.net/img/categories_v2/food/latinamerican_", "suffix": ".png"}, "primary": true}], "referralId": "v-1583891133", "hasPerk": false}], [{"id": "5025a382e4b064c42bc70ba7", "name": "Empanadas DelSUR", "location": {"address": "639b The Queensway", "lat": 43.62746368454997, "lng": -79.49785836016046, "labeledLatLngs": [{"label": "display", "lat": 43.62746368454997, "lng": -79.49785836016046}], "postalCode": "M8Y 1K6", "cc": "CA", "city": "Etobicoke", "state": "ON", "country": "Canada", "formattedAddress": ["639b The Queensway", "Etobicoke ON M8Y 1K6", "Canada"]}, "categories": [{"id": "4bf58dd8d48988d1be941735", "name": "Latin American Restaurant", "pluralName": "Latin American Restaurants", "shortName": "Latin American", "icon": {"prefix": "https://ss3.4sqi.net/img/categories_v2/food/latinamerican_", "suffix": ".png"}, "primary": true}], "referralId": "v-1583891133", "hasPerk": false}, {"id": "5bde1d5edb1d81002c7a97fd", "name": "Delicious Empanadas & More", "location": {"lat": 43.698172, "lng": -79.451371, "labeledLatLngs": [{"label": "display", "lat": 43.698172, "lng": -79.451371}], "postalCode": "M6E 3T1", "cc": "CA", "city": "Toronto", "state": "ON", "country": "Canada", "formattedAddress": ["Toronto ON M6E 3T1", "Canada"]}, "categories": [{"id": "58daa1558bbb0b01f18ec1f4", "name": "Colombian Restaurant", "pluralName": "Colombian Restaurants", "shortName": "Colombian", "icon": {"prefix": "https://ss3.4sqi.net/img/categories_v2/food/argentinian_", "suffix": ".png"}, "primary": true}], "referralId": "v-1583891133", "hasPerk": false}, {"id": "4ad4c05cf964a520e6f520e3", "name": "Jumbo Empanadas", "location": {"address": "245 Augusta Ave", "crossStreet": "btw Baldwin & Nassau", "lat": 43.65483086424975, "lng": -79.40209828955608, "labeledLatLngs": [{"label": "display", "lat": 43.65483086424975, "lng": -79.40209828955608}], "postalCode": "M5T 2L8", "cc": "CA", "neighborhood": "Kensington Market", "city": "Toronto", "state": "ON", "country": "Canada", "formattedAddress": ["245 Augusta Ave (btw Baldwin & Nassau)", "Toronto ON M5T 2L8", "Canada"]}, "categories": [{"id": "52939a8c3cf9994f4e043a35", "name": "Empanada Restaurant", "pluralName": "Empanada Restaurants", "shortName": "Empanada", "icon": {"prefix": "https://ss3.4sqi.net/img/categories_v2/food/latinamerican_", "suffix": ".png"}, "primary": true}], "referralId": "v-1583891133", "hasPerk": false}], [{"id": "5025a382e4b064c42bc70ba7", "name": "Empanadas DelSUR", "location": {"address": "639b The Queensway", "lat": 43.62746368454997, "lng": -79.49785836016046, "labeledLatLngs": [{"label": "display", "lat": 43.62746368454997, "lng": -79.49785836016046}], "postalCode": "M8Y 1K6", "cc": "CA", "city": "Etobicoke", "state": "ON", "country": "Canada", "formattedAddress": ["639b The Queensway", "Etobicoke ON M8Y 1K6", "Canada"]}, "categories": [{"id": "4bf58dd8d48988d1be941735", "name": "Latin American Restaurant", "pluralName": "Latin American Restaurants", "shortName": "Latin American", "icon": {"prefix": "https://ss3.4sqi.net/img/categories_v2/food/latinamerican_", "suffix": ".png"}, "primary": true}], "referralId": "v-1583891134", "hasPerk": false}, {"id": "5bde1d5edb1d81002c7a97fd", "name": "Delicious Empanadas & More", "location": {"lat": 43.698172, "lng": -79.451371, "labeledLatLngs": [{"label": "display", "lat": 43.698172, "lng": -79.451371}], "postalCode": "M6E 3T1", "cc": "CA", "city": "Toronto", "state": "ON", "country": "Canada", "formattedAddress": ["Toronto ON M6E 3T1", "Canada"]}, "categories": [{"id": "58daa1558bbb0b01f18ec1f4", "name": "Colombian Restaurant", "pluralName": "Colombian Restaurants", "shortName": "Colombian", "icon": {"prefix": "https://ss3.4sqi.net/img/categories_v2/food/argentinian_", "suffix": ".png"}, "primary": true}], "referralId": "v-1583891134", "hasPerk": false}, {"id": "4ad4c05cf964a520e6f520e3", "name": "Jumbo Empanadas", "location": {"address": "245 Augusta Ave", "crossStreet": "btw Baldwin & Nassau", "lat": 43.65483086424975, "lng": -79.40209828955608, "labeledLatLngs": [{"label": "display", "lat": 43.65483086424975, "lng": -79.40209828955608}], "postalCode": "M5T 2L8", "cc": "CA", "neighborhood": "Kensington Market", "city": "Toronto", "state": "ON", "country": "Canada", "formattedAddress": ["245 Augusta Ave (btw Baldwin & Nassau)", "Toronto ON M5T 2L8", "Canada"]}, "categories": [{"id": "52939a8c3cf9994f4e043a35", "name": "Empanada Restaurant", "pluralName": "Empanada Restaurants", "shortName": "Empanada", "icon": {"prefix": "https://ss3.4sqi.net/img/categories_v2/food/latinamerican_", "suffix": ".png"}, "primary": true}], "referralId": "v-1583891134", "hasPerk": false}], [{"id": "5025a382e4b064c42bc70ba7", "name": "Empanadas DelSUR", "location": {"address": "639b The Queensway", "lat": 43.62746368454997, "lng": -79.49785836016046, "labeledLatLngs": [{"label": "display", "lat": 43.62746368454997, "lng": -79.49785836016046}], "postalCode": "M8Y 1K6", "cc": "CA", "city": "Etobicoke", "state": "ON", "country": "Canada", "formattedAddress": ["639b The Queensway", "Etobicoke ON M8Y 1K6", "Canada"]}, "categories": [{"id": "4bf58dd8d48988d1be941735", "name": "Latin American Restaurant", "pluralName": "Latin American Restaurants", "shortName": "Latin American", "icon": {"prefix": "https://ss3.4sqi.net/img/categories_v2/food/latinamerican_", "suffix": ".png"}, "primary": true}], "referralId": "v-1583891134", "hasPerk": false}, {"id": "5bde1d5edb1d81002c7a97fd", "name": "Delicious Empanadas & More", "location": {"lat": 43.698172, "lng": -79.451371, "labeledLatLngs": [{"label": "display", "lat": 43.698172, "lng": -79.451371}], "postalCode": "M6E 3T1", "cc": "CA", "city": "Toronto", "state": "ON", "country": "Canada", "formattedAddress": ["Toronto ON M6E 3T1", "Canada"]}, "categories": [{"id": "58daa1558bbb0b01f18ec1f4", "name": "Colombian Restaurant", "pluralName": "Colombian Restaurants", "shortName": "Colombian", "icon": {"prefix": "https://ss3.4sqi.net/img/categories_v2/food/argentinian_", "suffix": ".png"}, "primary": true}], "referralId": "v-1583891134", "hasPerk": false}, {"id": "4ad4c05cf964a520e6f520e3", "name": "Jumbo Empanadas", "location": {"address": "245 Augusta Ave", "crossStreet": "btw Baldwin & Nassau", "lat": 43.65483086424975, "lng": -79.40209828955608, "labeledLatLngs": [{"label": "display", "lat": 43.65483086424975, "lng": -79.40209828955608}], "postalCode": "M5T 2L8", "cc": "CA", "neighborhood": "Kensington Market", "city": "Toronto", "state": "ON", "country": "Canada", "formattedAddress": ["245 Augusta Ave (btw Baldwin & Nassau)", "Toronto ON M5T 2L8", "Canada"]}, "categories": [{"id": "52939a8c3cf9994f4e043a35", "name": "Empanada Restaurant", "pluralName": "Empanada Restaurants", "shortName": "Empanada", "icon": {"prefix": "https://ss3.4sqi.net/img/categories_v2/food/latinamerican_", "suffix": ".png"}, "primary": true}], "referralId": "v-1583891134", "hasPerk": false}], [{"id": "5025a382e4b064c42bc70ba7", "name": "Empanadas DelSUR", "location": {"address": "639b The Queensway", "lat": 43.62746368454997, "lng": -79.49785836016046, "labeledLatLngs": [{"label": "display", "lat": 43.62746368454997, "lng": -79.49785836016046}], "postalCode": "M8Y 1K6", "cc": "CA", "city": "Etobicoke", "state": "ON", "country": "Canada", "formattedAddress": ["639b The Queensway", "Etobicoke ON M8Y 1K6", "Canada"]}, "categories": [{"id": "4bf58dd8d48988d1be941735", "name": "Latin American Restaurant", "pluralName": "Latin American Restaurants", "shortName": "Latin American", "icon": {"prefix": "https://ss3.4sqi.net/img/categories_v2/food/latinamerican_", "suffix": ".png"}, "primary": true}], "referralId": "v-1583891134", "hasPerk": false}, {"id": "5bde1d5edb1d81002c7a97fd", "name": "Delicious Empanadas & More", "location": {"lat": 43.698172, "lng": -79.451371, "labeledLatLngs": [{"label": "display", "lat": 43.698172, "lng": -79.451371}], "postalCode": "M6E 3T1", "cc": "CA", "city": "Toronto", "state": "ON", "country": "Canada", "formattedAddress": ["Toronto ON M6E 3T1", "Canada"]}, "categories": [{"id": "58daa1558bbb0b01f18ec1f4", "name": "Colombian Restaurant", "pluralName": "Colombian Restaurants", "shortName": "Colombian", "icon": {"prefix": "https://ss3.4sqi.net/img/categories_v2/food/argentinian_", "suffix": ".png"}, "primary": true}], "referralId": "v-1583891134", "hasPerk": false}, {"id": "4ad4c05cf964a520e6f520e3", "name": "Jumbo Empanadas", "location": {"address": "245 Augusta Ave", "crossStreet": "btw Baldwin & Nassau", "lat": 43.65483086424975, "lng": -79.40209828955608, "labeledLatLngs": [{"label": "display", "lat": 43.65483086424975, "lng": -79.40209828955608}], "postalCode": "M5T 2L8", "cc": "CA", "neighborhood": "Kensington Market", "city": "Toronto", "state": "ON", "country": "Canada", "formattedAddress": ["245 Augusta Ave (btw Baldwin & Nassau)", "Toronto ON M5T 2L8", "Canada"]}, "categories": [{"id": "52939a8c3cf9994f4e043a35", "name": "Empanada Restaurant", "pluralName": "Empanada Restaurants", "shortName": "Empanada", "icon": {"prefix": "https://ss3.4sqi.net/img/categories_v2/food/latinamerican_", "suffix": ".png"}, "primary": true}], "referralId": "v-1583891134", "hasPerk": false}], [{"id": "5025a382e4b064c42bc70ba7", "name": "Empanadas DelSUR", "location": {"address": "639b The Queensway", "lat": 43.62746368454997, "lng": -79.49785836016046, "labeledLatLngs": [{"label": "display", "lat": 43.62746368454997, "lng": -79.49785836016046}], "postalCode": "M8Y 1K6", "cc": "CA", "city": "Etobicoke", "state": "ON", "country": "Canada", "formattedAddress": ["639b The Queensway", "Etobicoke ON M8Y 1K6", "Canada"]}, "categories": [{"id": "4bf58dd8d48988d1be941735", "name": "Latin American Restaurant", "pluralName": "Latin American Restaurants", "shortName": "Latin American", "icon": {"prefix": "https://ss3.4sqi.net/img/categories_v2/food/latinamerican_", "suffix": ".png"}, "primary": true}], "referralId": "v-1583891135", "hasPerk": false}, {"id": "5bde1d5edb1d81002c7a97fd", "name": "Delicious Empanadas & More", "location": {"lat": 43.698172, "lng": -79.451371, "labeledLatLngs": [{"label": "display", "lat": 43.698172, "lng": -79.451371}], "postalCode": "M6E 3T1", "cc": "CA", "city": "Toronto", "state": "ON", "country": "Canada", "formattedAddress": ["Toronto ON M6E 3T1", "Canada"]}, "categories": [{"id": "58daa1558bbb0b01f18ec1f4", "name": "Colombian Restaurant", "pluralName": "Colombian Restaurants", "shortName": "Colombian", "icon": {"prefix": "https://ss3.4sqi.net/img/categories_v2/food/argentinian_", "suffix": ".png"}, "primary": true}], "referralId": "v-1583891135", "hasPerk": false}, {"id": "4ad4c05cf964a520e6f520e3", "name": "Jumbo Empanadas", "location": {"address": "245 Augusta Ave", "crossStreet": "btw Baldwin & Nassau", "lat": 43.65483086424975, "lng": -79.40209828955608, "labeledLatLngs": [{"label": "display", "lat": 43.65483086424975, "lng": -79.40209828955608}], "postalCode": "M5T 2L8", "cc": "CA", "neighborhood": "Kensington Market", "city": "Toronto", "state": "ON", "country": "Canada", "formattedAddress": ["245 Augusta Ave (btw Baldwin & Nassau)", "Toronto ON M5T 2L8", "Canada"]}, "categories": [{"id": "52939a8c3cf9994f4e043a35", "name": "Empanada Restaurant", "pluralName": "Empanada Restaurants", "shortName": "Empanada", "icon": {"prefix": "https://ss3.4sqi.net/img/categories_v2/food/latinamerican_", "suffix": ".png"}, "primary": true}], "referralId": "v-1583891135", "hasPerk": false}], [{"id": "5025a382e4b064c42bc70ba7", "name": "Empanadas DelSUR", "location": {"address": "639b The Queensway", "lat": 43.62746368454997, "lng": -79.49785836016046, "labeledLatLngs": [{"label": "display", "lat": 43.62746368454997, "lng": -79.49785836016046}], "postalCode": "M8Y 1K6", "cc": "CA", "city": "Etobicoke", "state": "ON", "country": "Canada", "formattedAddress": ["639b The Queensway", "Etobicoke ON M8Y 1K6", "Canada"]}, "categories": [{"id": "4bf58dd8d48988d1be941735", "name": "Latin American Restaurant", "pluralName": "Latin American Restaurants", "shortName": "Latin American", "icon": {"prefix": "https://ss3.4sqi.net/img/categories_v2/food/latinamerican_", "suffix": ".png"}, "primary": true}], "referralId": "v-1583891135", "hasPerk": false}, {"id": "5bde1d5edb1d81002c7a97fd", "name": "Delicious Empanadas & More", "location": {"lat": 43.698172, "lng": -79.451371, "labeledLatLngs": [{"label": "display", "lat": 43.698172, "lng": -79.451371}], "postalCode": "M6E 3T1", "cc": "CA", "city": "Toronto", "state": "ON", "country": "Canada", "formattedAddress": ["Toronto ON M6E 3T1", "Canada"]}, "categories": [{"id": "58daa1558bbb0b01f18ec1f4", "name": "Colombian Restaurant", "pluralName": "Colombian Restaurants", "shortName": "Colombian", "icon": {"prefix": "https://ss3.4sqi.net/img/categories_v2/food/argentinian_", "suffix": ".png"}, "primary": true}], "referralId": "v-1583891135", "hasPerk": false}, {"id": "4ad4c05cf964a520e6f520e3", "name": "Jumbo Empanadas", "location": {"address": "245 Augusta Ave", "crossStreet": "btw Baldwin & Nassau", "lat": 43.65483086424975, "lng": -79.40209828955608, "labeledLatLngs": [{"label": "display", "lat": 43.65483086424975, "lng": -79.40209828955608}], "postalCode": "M5T 2L8", "cc": "CA", "neighborhood": "Kensington Market", "city": "Toronto", "state": "ON", "country": "Canada", "formattedAddress": ["245 Augusta Ave (btw Baldwin & Nassau)", "Toronto ON M5T 2L8", "Canada"]}, "categories": [{"id": "52939a8c3cf9994f4e043a35", "name": "Empanada Restaurant", "pluralName": "Empanada Restaurants", "shortName": "Empanada", "icon": {"prefix": "https://ss3.4sqi.net/img/categories_v2/food/latinamerican_", "suffix": ".png"}, "primary": true}], "referralId": "v-1583891135", "hasPerk": false}], [{"id": "5025a382e4b064c42bc70ba7", "name": "Empanadas DelSUR", "location": {"address": "639b The Queensway", "lat": 43.62746368454997, "lng": -79.49785836016046, "labeledLatLngs": [{"label": "display", "lat": 43.62746368454997, "lng": -79.49785836016046}], "postalCode": "M8Y 1K6", "cc": "CA", "city": "Etobicoke", "state": "ON", "country": "Canada", "formattedAddress": ["639b The Queensway", "Etobicoke ON M8Y 1K6", "Canada"]}, "categories": [{"id": "4bf58dd8d48988d1be941735", "name": "Latin American Restaurant", "pluralName": "Latin American Restaurants", "shortName": "Latin American", "icon": {"prefix": "https://ss3.4sqi.net/img/categories_v2/food/latinamerican_", "suffix": ".png"}, "primary": true}], "referralId": "v-1583891136", "hasPerk": false}, {"id": "5bde1d5edb1d81002c7a97fd", "name": "Delicious Empanadas & More", "location": {"lat": 43.698172, "lng": -79.451371, "labeledLatLngs": [{"label": "display", "lat": 43.698172, "lng": -79.451371}], "postalCode": "M6E 3T1", "cc": "CA", "city": "Toronto", "state": "ON", "country": "Canada", "formattedAddress": ["Toronto ON M6E 3T1", "Canada"]}, "categories": [{"id": "58daa1558bbb0b01f18ec1f4", "name": "Colombian Restaurant", "pluralName": "Colombian Restaurants", "shortName": "Colombian", "icon": {"prefix": "https://ss3.4sqi.net/img/categories_v2/food/argentinian_", "suffix": ".png"}, "primary": true}], "referralId": "v-1583891136", "hasPerk": false}, {"id": "4ad4c05cf964a520e6f520e3", "name": "Jumbo Empanadas", "location": {"address": "245 Augusta Ave", "crossStreet": "btw Baldwin & Nassau", "lat": 43.65483086424975, "lng": -79.40209828955608, "labeledLatLngs": [{"label": "display", "lat": 43.65483086424975, "lng": -79.40209828955608}], "postalCode": "M5T 2L8", "cc": "CA", "neighborhood": "Kensington Market", "city": "Toronto", "state": "ON", "country": "Canada", "formattedAddress": ["245 Augusta Ave (btw Baldwin & Nassau)", "Toronto ON M5T 2L8", "Canada"]}, "categories": [{"id": "52939a8c3cf9994f4e043a35", "name": "Empanada Restaurant", "pluralName": "Empanada Restaurants", "shortName": "Empanada", "icon": {"prefix": "https://ss3.4sqi.net/img/categories_v2/food/latinamerican_", "suffix": ".png"}, "primary": true}], "referralId": "v-1583891136", "hasPerk": false}], [{"id": "5025a382e4b064c42bc70ba7", "name": "Empanadas DelSUR", "location": {"address": "639b The Queensway", "lat": 43.62746368454997, "lng": -79.49785836016046, "labeledLatLngs": [{"label": "display", "lat": 43.62746368454997, "lng": -79.49785836016046}], "postalCode": "M8Y 1K6", "cc": "CA", "city": "Etobicoke", "state": "ON", "country": "Canada", "formattedAddress": ["639b The Queensway", "Etobicoke ON M8Y 1K6", "Canada"]}, "categories": [{"id": "4bf58dd8d48988d1be941735", "name": "Latin American Restaurant", "pluralName": "Latin American Restaurants", "shortName": "Latin American", "icon": {"prefix": "https://ss3.4sqi.net/img/categories_v2/food/latinamerican_", "suffix": ".png"}, "primary": true}], "referralId": "v-1583891136", "hasPerk": false}, {"id": "5bde1d5edb1d81002c7a97fd", "name": "Delicious Empanadas & More", "location": {"lat": 43.698172, "lng": -79.451371, "labeledLatLngs": [{"label": "display", "lat": 43.698172, "lng": -79.451371}], "postalCode": "M6E 3T1", "cc": "CA", "city": "Toronto", "state": "ON", "country": "Canada", "formattedAddress": ["Toronto ON M6E 3T1", "Canada"]}, "categories": [{"id": "58daa1558bbb0b01f18ec1f4", "name": "Colombian Restaurant", "pluralName": "Colombian Restaurants", "shortName": "Colombian", "icon": {"prefix": "https://ss3.4sqi.net/img/categories_v2/food/argentinian_", "suffix": ".png"}, "primary": true}], "referralId": "v-1583891136", "hasPerk": false}, {"id": "4ad4c05cf964a520e6f520e3", "name": "Jumbo Empanadas", "location": {"address": "245 Augusta Ave", "crossStreet": "btw Baldwin & Nassau", "lat": 43.65483086424975, "lng": -79.40209828955608, "labeledLatLngs": [{"label": "display", "lat": 43.65483086424975, "lng": -79.40209828955608}], "postalCode": "M5T 2L8", "cc": "CA", "neighborhood": "Kensington Market", "city": "Toronto", "state": "ON", "country": "Canada", "formattedAddress": ["245 Augusta Ave (btw Baldwin & Nassau)", "Toronto ON M5T 2L8", "Canada"]}, "categories": [{"id": "52939a8c3cf9994f4e043a35", "name": "Empanada Restaurant", "pluralName": "Empanada Restaurants", "shortName": "Empanada", "icon": {"prefix": "https://ss3.4sqi.net/img/categories_v2/food/latinamerican_", "suffix": ".png"}, "primary": true}], "referralId": "v-1583891136", "hasPerk": false}], [{"id": "4e07720c6284d9ee92d57f48", "name": "Argentinian BBQ Den", "location": {"address": "857 Shaw St", "lat": 43.665842, "lng": -79.424114, "labeledLatLngs": [{"label": "display", "lat": 43.665842, "lng": -79.424114}], "cc": "CA", "city": "Toronto", "state": "ON", "country": "Canada", "formattedAddress": ["857 Shaw St", "Toronto ON", "Canada"]}, "categories": [], "referralId": "v-1583891136", "hasPerk": false}], [{"id": "4e07720c6284d9ee92d57f48", "name": "Argentinian BBQ Den", "location": {"address": "857 Shaw St", "lat": 43.665842, "lng": -79.424114, "labeledLatLngs": [{"label": "display", "lat": 43.665842, "lng": -79.424114}], "cc": "CA", "city": "Toronto", "state": "ON", "country": "Canada", "formattedAddress": ["857 Shaw St", "Toronto ON", "Canada"]}, "categories": [], "referralId": "v-1583891137", "hasPerk": false}], [{"id": "4e07720c6284d9ee92d57f48", "name": "Argentinian BBQ Den", "location": {"address": "857 Shaw St", "lat": 43.665842, "lng": -79.424114, "labeledLatLngs": [{"label": "display", "lat": 43.665842, "lng": -79.424114}], "cc": "CA", "city": "Toronto", "state": "ON", "country": "Canada", "formattedAddress": ["857 Shaw St", "Toronto ON", "Canada"]}, "categories": [], "referralId": "v-1583891137", "hasPerk": false}], [{"id": "4e07720c6284d9ee92d57f48", "name": "Argentinian BBQ Den", "location": {"address": "857 Shaw St", "lat": 43.665842, "lng": -79.424114, "labeledLatLngs": [{"label": "display", "lat": 43.665842, "lng": -79.424114}], "cc": "CA", "city": "Toronto", "state": "ON", "country": "Canada", "formattedAddress": ["857 Shaw St", "Toronto ON", "Canada"]}, "categories": [], "referralId": "v-1583891138", "hasPerk": false}], [{"id": "4e07720c6284d9ee92d57f48", "name": "Argentinian BBQ Den", "location": {"address": "857 Shaw St", "lat": 43.665842, "lng": -79.424114, "labeledLatLngs": [{"label": "display", "lat": 43.665842, "lng": -79.424114}], "cc": "CA", "city": "Toronto", "state": "ON", "country": "Canada", "formattedAddress": ["857 Shaw St", "Toronto ON", "Canada"]}, "categories": [], "referralId": "v-1583891138", "hasPerk": false}], [{"id": "4e07720c6284d9ee92d57f48", "name": "Argentinian BBQ Den", "location": {"address": "857 Shaw St", "lat": 43.665842, "lng": -79.424114, "labeledLatLngs": [{"label": "display", "lat": 43.665842, "lng": -79.424114}], "cc": "CA", "city": "Toronto", "state": "ON", "country": "Canada", "formattedAddress": ["857 Shaw St", "Toronto ON", "Canada"]}, "categories": [], "referralId": "v-1583891138", "hasPerk": false}], [{"id": "4e07720c6284d9ee92d57f48", "name": "Argentinian BBQ Den", "location": {"address": "857 Shaw St", "lat": 43.665842, "lng": -79.424114, "labeledLatLngs": [{"label": "display", "lat": 43.665842, "lng": -79.424114}], "cc": "CA", "city": "Toronto", "state": "ON", "country": "Canada", "formattedAddress": ["857 Shaw St", "Toronto ON", "Canada"]}, "categories": [], "referralId": "v-1583891139", "hasPerk": false}], [{"id": "4e07720c6284d9ee92d57f48", "name": "Argentinian BBQ Den", "location": {"address": "857 Shaw St", "lat": 43.665842, "lng": -79.424114, "labeledLatLngs": [{"label": "display", "lat": 43.665842, "lng": -79.424114}], "cc": "CA", "city": "Toronto", "state": "ON", "country": "Canada", "formattedAddress": ["857 Shaw St", "Toronto ON", "Canada"]}, "categories": [], "referralId": "v-1583891139", "hasPerk": false}], [{"id": "4e07720c6284d9ee92d57f48", "name": "Argentinian BBQ Den", "location": {"address": "857 Shaw St", "lat": 43.665842, "lng": -79.424114, "labeledLatLngs": [{"label": "display", "lat": 43.665842, "lng": -79.424114}], "cc": "CA", "city": "Toronto", "state": "ON", "country": "Canada", "formattedAddress": ["857 Shaw St", "Toronto ON", "Canada"]}, "categories": [], "referralId": "v-1583891140", "hasPerk": false}], [{"id": "4e07720c6284d9ee92d57f48", "name": "Argentinian BBQ Den", "location": {"address": "857 Shaw St", "lat": 43.665842, "lng": -79.424114, "labeledLatLngs": [{"label": "display", "lat": 43.665842, "lng": -79.424114}], "cc": "CA", "city": "Toronto", "state": "ON", "country": "Canada", "formattedAddress": ["857 Shaw St", "Toronto ON", "Canada"]}, "categories": [], "referralId": "v-1583891140", "hasPerk": false}], [{"id": "4e07720c6284d9ee92d57f48", "name": "Argentinian BBQ Den", "location": {"address": "857 Shaw St", "lat": 43.665842, "lng": -79.424114, "labeledLatLngs": [{"label": "display", "lat": 43.665842, "lng": -79.424114}], "cc": "CA", "city": "Toronto", "state": "ON", "country": "Canada", "formattedAddress": ["857 Shaw St", "Toronto ON", "Canada"]}, "categories": [], "referralId": "v-1583891140", "hasPerk": false}], [{"id": "4e07720c6284d9ee92d57f48", "name": "Argentinian BBQ Den", "location": {"address": "857 Shaw St", "lat": 43.665842, "lng": -79.424114, "labeledLatLngs": [{"label": "display", "lat": 43.665842, "lng": -79.424114}], "cc": "CA", "city": "Toronto", "state": "ON", "country": "Canada", "formattedAddress": ["857 Shaw St", "Toronto ON", "Canada"]}, "categories": [], "referralId": "v-1583891141", "hasPerk": false}]]